{
  "resultCode": "00",
  "eventInfoList": [
    {
      "date": "2019-04-29",
      "content": "[辽电新闻]（输电运检室输电运检室输电运检室输电运检室)",
      "status": "正常运行",
      "longitude":"121.5477141892",
      "latitude":"39.0118384396",
      "video1":"data/file/万达3开关站.mp4",
      "video2":"data/file/大连变220.mp4"
    },
    {
      "date": "2019-04-29",
      "content": "[辽电新闻]（输电运检室输电运检室输电运检室输电运检室)",
      "status": "正常运行",
      "longitude":"121.7037073486","latitude":"38.8729536334",
      "video1":"data/file/万达3开关站.mp4",
      "video2":"data/file/大连变220.mp4"
    },
    {
      "date": "2019-04-29",
      "content": "[辽电新闻]（输电运检室输电运检室输电运检室输电运检室)",
      "status": "正常运行",
      "longitude":"121.2725654951","latitude":"38.8309936597",
      "video1":"data/file/万达3开关站.mp4",
      "video2":"data/file/大连变220.mp4"
    },
    {
      "date": "2019-04-29",
      "content": "[辽电新闻]（输电运检室输电运检室输电运检室输电运检室)",
      "status": "正常运行",
      "longitude":"121.6609701574","latitude":"38.9233945118",
      "video1":"data/file/万达3开关站.mp4",
      "video2":"data/file/大连变220.mp4"
    },
    {
      "date": "2019-04-29",
      "content": "[辽电新闻]（输电运检室输电运检室输电运检室输电运检室)",
      "status": "正常运行",
      "longitude":"121.5477141892","latitude":"39.0118384396",
      "video1":"data/file/万达3开关站.mp4",
      "video2":"data/file/大连变220.mp4"
    },
    {
      "date": "2019-04-29",
      "content": "[辽电新闻]（输电运检室输电运检室输电运检室输电运检室)",
      "status": "正常运行",
      "longitude":"121.2725654951","latitude":"38.8309936597",
      "video1":"data/file/万达3开关站.mp4",
      "video2":"data/file/大连变220.mp4"
    },
    {
      "date": "2019-04-29",
      "content": "[辽电新闻]（输电运检室输电运检室输电运检室输电运检室)",
      "status": "正常运行",
      "longitude":"121.2725654951","latitude":"38.8309936597",
      "video1":"data/file/万达3开关站.mp4",
      "video2":"data/file/大连变220.mp4"
    },
    {
      "date": "2019-04-29",
      "content": "[辽电新闻]（输电运检室输电运检室输电运检室输电运检室)",
      "status": "正常运行",
      "longitude":"121.6662984646","latitude":"38.9065189951",
      "video1":"data/file/万达3开关站.mp4",
      "video2":"data/file/大连变220.mp4"
    }
  ],
  "fujinList":[
    {"name":"变电运检室应急六队"},
    {"name":"配电运检室应急十一队"},
    {"name":"甘井子供电公司应急五队"},
    {"name":"输电运检室车辆"},
    {"name":"甘井子供电公司应急车辆"},
    {"name":"大连变物资仓库"},
    {"name":"电缆运维室应急三队"}
  ],
  "duiwuList": [
    {"name":"万嘉应急一队","type":"220KV大连变","person":"林玉玺","phone":"13940896203","img":"data/file/duiwu/1.png"},
    {"name":"鑫亚应急一队","type":"大连国际会议中心","person":"周卫","phone":"13204088295","img":"data/file/duiwu/2.png"},
    {"name":"中山分公司应急一队","type":"大连国际会议中心","person":"徐栋献","phone":"13500771656","img":"data/file/duiwu/3.png"},
    {"name":"鑫亚应急十一队","type":"棒棰岛宾馆","person":"吴培龙","phone":"13942826028","img":"data/file/duiwu/4.png"},
    {"name":"配电运检室应急二十五队","type":"海之梦广场开关站","person":"王涵申","phone":"18641119607","img":"data/file/duiwu/5.png"},
    {"name":"电缆运检室应急五队","type":"港华隧道","person":"鞠振兴","phone":"13940821441","img":"data/file/duiwu/6.png"},
    {"name":"电缆运检室应急十三队","type":"陆港隧道","person":"张新成","phone":"13898498132","img":"data/file/duiwu/7.png"},
    {"name":"变电检修一队","type":"港东变","person":"刘斌","phone":"13390013700","img":"data/file/duiwu/8.png"},
    {"name":"电缆运检室应急二队","type":"南连线","person":"吴连军","phone":"18642876355","img":""},
    {"name":"配电运检室应急三十三队","type":"机场中心变","person":"韦民杰","phone":"13304267089","img":""},
    {"name":"信通分公司应急二队","type":"信息机房","person":"娄道国","phone":"18641161199","img":""},
    {"name":"鑫亚应急十队","type":"香格里拉酒店","person":"徐海峰","phone":"13840968965","img":""}
  ],
  "renyuanList": [],
  "cheliangList": [
    {"name":"调控中心应急车辆","img":"data/file/cheliang/1.png"},
    {"name":"变电运维室应急车辆","img":"data/file/cheliang/2.png"},
    {"name":"变电检修室应急车辆","img":"data/file/cheliang/3.png"},
    {"name":"输电运检室应急车辆","img":"data/file/cheliang/4.png"},
    {"name":"电缆运检室应急车辆","img":"data/file/cheliang/5.png"},
    {"name":"配电运检室应急车辆","img":"data/file/cheliang/6.png"},
    {"name":"中山供电分公司应急车辆","img":"data/file/cheliang/7.png"},
    {"name":"高新分公司应急车辆","img":"data/file/cheliang/8.png"},
    {"name":"信通公司应急车辆","img":"data/file/cheliang/9.png"}
  ],
  "wuziList": [
    {"id":"1","name":"变电检修室仓库、大连变","longitude":"121.5477141892","latitude":"39.0118384396","person":"林玉玺","phone":"13940896203","area":"大连变","personList":"林玉玺",
      "detailList":[
        {"ORG":"变电检修室","WZCKMC":"变电检修室仓库、大连变","SBLX":"微动限位开关","XH":"西开ZHW4-126（L）型组合电器，型号LXW5-11G1"},
        {"ORG":"变电检修室","WZCKMC":"变电检修室仓库、大连变","SBLX":"分、合闸线圈","XH":"西开ZHW4-126（L）型组合电器，型号154 3/363"},
        {"ORG":"变电检修室","WZCKMC":"变电检修室仓库、大连变","SBLX":"电机","XH":"西开ZHW4-126（L）型组合电器，型号GPFX052143 DC220 6A 660W"},
        {"ORG":"变电检修室","WZCKMC":"变电检修室仓库、大连变","SBLX":"合闸线圈","XH":"杭州西门子3AP1 FI型开关，型号412-11945-024 220DC"},
        {"ORG":"变电检修室","WZCKMC":"变电检修室仓库、大连变","SBLX":"分闸线圈","XH":"杭州西门子3AP1 FI型开关，型号412-11945-025 220DC"},
        {"ORG":"变电检修室","WZCKMC":"变电检修室仓库、大连变","SBLX":"电机","XH":"杭州西门子3AP1 FI型开关，型号412-11204-005 220AC"}
      ]
    },
    {"id":"2","name":"变电检修室仓库、石槽变","longitude":"121.7037073486","latitude":"38.8729536334","person":"黄进","phone":"15140335286","area":"石槽变","personList":"黄进",
      "detailList":[]
    },
    {"id":"3","name":"变电检修室仓库、三元变","longitude":"121.2725654951","latitude":"38.8309936597","person":"李大亮","phone":"15141103255","area":"三元变","personList":"李大亮",
      "detailList":[]},
    {"id":"4","name":"变电检修室仓库、明泽变","longitude":"121.6609701574","latitude":"38.9233945118","person":"梁杰","phone":"13942098928","area":"明泽变","personList":"梁杰",
      "detailList":[]},
    {"id":"5","name":"变电检修室仓库、胜利变","longitude":"121.5477141892","latitude":"39.0118384396","person":"杜英东","phone":"18641114281","area":"民寿变、春华变、胜利变、三元变、东港商务站","personList":"杜英东",
      "detailList":[]},
    {"id":"6","name":"变电检修室仓库、磊子山变","longitude":"121.2725654951","latitude":"38.8309936597","person":"李增宁","phone":"13940817836","area":"革镇堡变、白玉变,前牧变、周水子变、红旗变、锦绣变、辛寨子变、郭家变、磊子山变","personList":"李增宁",
      "detailList":[]},
    {"id":"7","name":"变电检修室仓库、锦绣变","longitude":"121.2725654951","latitude":"38.8309936597","person":"李增宁","phone":"13940817836","area":"革镇堡变、白玉变,前牧变、周水子变、红旗变、锦绣变、辛寨子变、郭家变、磊子山变","personList":"李增宁",
      "detailList":[]},
    {"id":"8","name":"变电检修室仓库、青云变","longitude":"121.6662984646","latitude":"38.9065189951","person":"朱家锋","phone":"18342029977","area":"华昌变、港东变、青云变、东海变、民主变、石槽变、虎滩变、明泽变","personList":"朱家锋",
      "detailList":[]},
    {"id":"9","name":"变电检修室仓库、华昌变","longitude":"121.6460404593","latitude":"38.9214750302","person":"刘海","phone":"13478911898","area":"华昌变－真理变光缆、真理变－新启屯变光缆、华昌变－民主变光缆、民寿变－中山供","personList":"刘海",
      "detailList":[]},
    {"id":"10","name":"变电检修室仓库、民主变","longitude":"121.6545618231","latitude":"38.9323420728","person":"朱家锋","phone":"18342029977","area":"华昌变、港东变、青云变、东海变、民主变、石槽变、虎滩变、明泽变","personList":"朱家锋",
      "detailList":[]},
    {"id":"11","name":"变电检修室仓库、东海变","longitude":"121.2725654951","latitude":"38.8309936597","person":"朱家锋","phone":"18342029977","area":"华昌变、港东变、青云变、东海变、民主变、石槽变、虎滩变、明泽变","personList":"朱家锋",
      "detailList":[]},
    {"id":"12","name":"变电检修室仓库、郭家变","longitude":"121.2725654951","latitude":"38.8309936597","person":"李增宁","phone":"13940817836","area":"革镇堡变、白玉变,前牧变、周水子变、红旗变、锦绣变、辛寨子变、郭家变、磊子山变","personList":"李增宁",
      "detailList":[]},
    {"id":"13","name":"革镇堡变","longitude":"121.5369471260","latitude":"39.0160334477","person":"李增宁","phone":"13940817836","area":"革镇堡变、白玉变,前牧变、周水子变、红旗变、锦绣变、辛寨子变、郭家变、磊子山变","personList":"李增宁",
      "detailList":[]},
    {"id":"14","name":"德胜仓库","longitude":"121.2725654951","latitude":"38.8309936597","person":"","phone":"","area":"","personList":"",
      "detailList":[]},
    {"id":"15","name":"周水子变","longitude":"121.5759528437","latitude":"38.9600982325","person":"李增宁","phone":"13940817836","area":"革镇堡变、白玉变,前牧变、周水子变、红旗变、锦绣变、辛寨子变、郭家变、磊子山变","personList":"李增宁",
      "detailList":[]},
    {"id":"16","name":"泰科公司","longitude":"121.8363641437","latitude":"39.0653826817","person":"","phone":"","area":"","personList":"",
      "detailList":[]},
    {"id":"17","name":"石槽","longitude":"121.7037073486","latitude":"38.8729536334","person":"黄进","phone":"15140335286","area":"石槽变","personList":"黄进",
      "detailList":[]},
    {"id":"18","name":"绿山","longitude":"121.8033232763","latitude":"39.0578843781","person":"娄道国","phone":"18641161199","area":"公司8楼、绿山信息机房","personList":"娄道国",
      "detailList":[]},
    {"id":"19","name":"华昌变","longitude":"121.6519301574","latitude":"38.9282745118","person":"朱家锋","phone":"18342029977","area":"华昌变、港东变、青云变、东海变、民主变、石槽变、虎滩变、明泽变","personList":"朱家锋",
      "detailList":[]}
  ]
}
